{
"type": "FeatureCollection",
"name": "BDDistrictCentroids",
"crs": { "type": "name", "properties": { "name": "urn:ogc:def:crs:OGC:1.3:CRS84" } },
"features": [
{ "type": "Feature", "properties": { "id": "test_layer_1_1.20", "ID_1": 3, "NAME_1": "Dhaka", "ID_2": 12, "NAME_2": "Kishoreganj", "ID_3": 32, "NAME_3": "Kishoreganj", "ID_4": 202, "NAME_4": null, "VARNAME_4": null },
 "geometry": { "type": "Point", "coordinates": [ 90.944409041724427, 24.372420349299503 ] }
},
{ "type": "Feature", "properties": { "id": "test_layer_1_1.71", "ID_1": 2, "NAME_1": "Chattogram", "ID_2": 5, "NAME_2": "Comilla", "ID_3": 10, "NAME_3": "Brahmanbaria", "ID_4": 68, "NAME_4": null, "VARNAME_4": null }, "geometry": { "type": "Point", "coordinates": [ 91.085218076041215, 23.951432285817514 ] } },
{ "type": "Feature", "properties": { "id": "test_layer_1_1.275", "ID_1": 4, "NAME_1": "Khulna", "ID_2": 15, "NAME_2": "Jessore", "ID_3": 39, "NAME_3": "Narail", "ID_4": 264, "NAME_4": null, "VARNAME_4": null }, "geometry": { "type": "Point", "coordinates": [ 89.575189785071601, 23.126123145395333 ] } },
{ "type": "Feature", "properties": { "id": "test_layer_1_1.339", "ID_1": 5, "NAME_1": "Rangpur", "ID_2": 19, "NAME_2": "Dinajpur", "ID_3": 51, "NAME_3": "Thakurgaon", "ID_4": 340, "NAME_4": null, "VARNAME_4": null }, "geometry": { "type": "Point", "coordinates": [ 88.347577810650037, 25.989795638132929 ] } },
{ "type": "Feature", "properties": { "id": "test_layer_1_1.18", "ID_1": 1, "NAME_1": "Barishal", "ID_2": 1, "NAME_2": "Barishal", "ID_3": 3, "NAME_3": "Pirojpur", "ID_4": 15, "NAME_4": null, "VARNAME_4": null }, "geometry": { "type": "Point", "coordinates": [ 90.009026291606673, 22.573817769647444 ] } },
{ "type": "Feature", "properties": { "id": "test_layer_1_1.22", "ID_1": 2, "NAME_1": "Chattogram", "ID_2": 4, "NAME_2": "Chattogram", "ID_3": 8, "NAME_3": "Chattogram", "ID_4": 48, "NAME_4": null, "VARNAME_4": null }, "geometry": { "type": "Point", "coordinates": [ 91.841825582109223, 22.447923519683307 ] } },
{ "type": "Feature", "properties": { "id": "test_layer_1_1.26", "ID_1": 1, "NAME_1": "Barishal", "ID_2": 2, "NAME_2": "Patuakhali", "ID_3": 4, "NAME_3": "Bhola", "ID_4": 21, "NAME_4": null, "VARNAME_4": null }, "geometry": { "type": "Point", "coordinates": [ 90.742990089315924, 22.386104885972927 ] } },
{ "type": "Feature", "properties": { "id": "test_layer_1_1.337", "ID_1": 5, "NAME_1": "Rajshahi", "ID_2": 20, "NAME_2": "Pabna", "ID_3": 52, "NAME_3": "Pabna", "ID_4": 345, "NAME_4": null, "VARNAME_4": null }, "geometry": { "type": "Point", "coordinates": [ 89.393250250319952, 24.056360925942897 ] } },
{ "type": "Feature", "properties": { "id": "test_layer_1_1.170", "ID_1": 3, "NAME_1": "Dhaka", "ID_2": 10, "NAME_2": "Faridpur", "ID_3": 25, "NAME_3": "Faridpur", "ID_4": 163, "NAME_4": null, "VARNAME_4": null }, "geometry": { "type": "Point", "coordinates": [ 89.837466032821567, 23.476047447922916 ] } },
{ "type": "Feature", "properties": { "id": "test_layer_1_1.179", "ID_1": 3, "NAME_1": "Dhaka", "ID_2": 10, "NAME_2": "Faridpur", "ID_3": 26, "NAME_3": "Gopalganj", "ID_4": 171, "NAME_4": null, "VARNAME_4": null }, "geometry": { "type": "Point", "coordinates": [ 89.900042466255329, 23.096561934362633 ] } },
{ "type": "Feature", "properties": { "id": "test_layer_1_1.84", "ID_1": 2, "NAME_1": "Chattogram", "ID_2": 5, "NAME_2": "Comilla", "ID_3": 11, "NAME_3": "Chandpur", "ID_4": 75, "NAME_4": null, "VARNAME_4": null }, "geometry": { "type": "Point", "coordinates": [ 90.768678606840055, 23.275350625390228 ] } },
{ "type": "Feature", "properties": { "id": "test_layer_1_1.249", "ID_1": 4, "NAME_1": "Khulna", "ID_2": 15, "NAME_2": "Jessore", "ID_3": 38, "NAME_3": "Magura", "ID_4": 262, "NAME_4": null, "VARNAME_4": null }, "geometry": { "type": "Point", "coordinates": [ 89.435222592226125, 23.43812741551935 ] } },
{ "type": "Feature", "properties": { "id": "test_layer_1_1.321", "ID_1": 5, "NAME_1": "Rangpur", "ID_2": 19, "NAME_2": "Dinajpur", "ID_3": 49, "NAME_3": "Dinajpur", "ID_4": 321, "NAME_4": null, "VARNAME_4": null }, "geometry": { "type": "Point", "coordinates": [ 88.787135940571034, 25.630105532117103 ] } },
{ "type": "Feature", "properties": { "id": "test_layer_1_1.267", "ID_1": 4, "NAME_1": "Khulna", "ID_2": 15, "NAME_2": "Jessore", "ID_3": 37, "NAME_3": "Jhenaidah", "ID_4": 254, "NAME_4": null, "VARNAME_4": null }, "geometry": { "type": "Point", "coordinates": [ 89.086302440670238, 23.483516617399427 ] } },
{ "type": "Feature", "properties": { "id": "test_layer_1_1.374", "ID_1": 5, "NAME_1": "Rajshahi", "ID_2": 21, "NAME_2": "Rajshahi", "ID_3": 55, "NAME_3": "Natore", "ID_4": 373, "NAME_4": null, "VARNAME_4": null }, "geometry": { "type": "Point", "coordinates": [ 89.087662865435448, 24.380646509755653 ] } },
{ "type": "Feature", "properties": { "id": "test_layer_1_1.82", "ID_1": 2, "NAME_1": "Chattogram", "ID_2": 6, "NAME_2": "Khagrachari", "ID_3": 13, "NAME_3": "Khagrachari", "ID_4": 97, "NAME_4": null, "VARNAME_4": null }, "geometry": { "type": "Point", "coordinates": [ 91.953168769304042, 23.169523166735406 ] } },
{ "type": "Feature", "properties": { "id": "test_layer_1_1.402", "ID_1": 5, "NAME_1": "Rangpur", "ID_2": 22, "NAME_2": "Rangpur", "ID_3": 59, "NAME_3": "Kurigram", "ID_4": 401, "NAME_4": null, "VARNAME_4": null }, "geometry": { "type": "Point", "coordinates": [ 89.698972048111969, 25.789739789768479 ] } },
{ "type": "Feature", "properties": { "id": "test_layer_1_1.106", "ID_1": 2, "NAME_1": "Chattogram", "ID_2": 7, "NAME_2": "Noakhali", "ID_3": 15, "NAME_3": "Lakshmipur", "ID_4": 109, "NAME_4": null, "VARNAME_4": null }, "geometry": { "type": "Point", "coordinates": [ 90.854561307634128, 22.900415959975884 ] } },
{ "type": "Feature", "properties": { "id": "test_layer_1_1.380", "ID_1": 5, "NAME_1": "Rajshahi", "ID_2": 21, "NAME_2": "Rajshahi", "ID_3": 56, "NAME_3": "Chapainawabganj", "ID_4": 379, "NAME_4": null, "VARNAME_4": null }, "geometry": { "type": "Point", "coordinates": [ 88.267387126737717, 24.707800885175939 ] } },
{ "type": "Feature", "properties": { "id": "test_layer_1_1.1", "ID_1": 1, "NAME_1": "Barishal", "ID_2": 1, "NAME_2": "Barishal", "ID_3": 1, "NAME_3": "Barishal", "ID_4": 1, "NAME_4": null, "VARNAME_4": null }, "geometry": { "type": "Point", "coordinates": [ 90.277140322706728, 22.864900286940475 ] } },
{ "type": "Feature", "properties": { "id": "test_layer_1_1.32", "ID_1": 1, "NAME_1": "Barishal", "ID_2": 2, "NAME_2": "Patuakhali", "ID_3": 5, "NAME_3": "Barguna", "ID_4": 29, "NAME_4": null, "VARNAME_4": null }, "geometry": { "type": "Point", "coordinates": [ 90.128394977187213, 22.190549400030434 ] } },
{ "type": "Feature", "properties": { "id": "test_layer_1_1.198", "ID_1": 3, "NAME_1": "Mymensingh", "ID_2": 11, "NAME_2": "Jamalpur", "ID_3": 31, "NAME_3": "Sherpur", "ID_4": 195, "NAME_4": null, "VARNAME_4": null }, "geometry": { "type": "Point", "coordinates": [ 90.078270972701375, 25.085335196567602 ] } },
{ "type": "Feature", "properties": { "id": "test_layer_1_1.162", "ID_1": 3, "NAME_1": "Dhaka", "ID_2": 9, "NAME_2": "Dhaka", "ID_3": 23, "NAME_3": "Narsingdi", "ID_4": 156, "NAME_4": null, "VARNAME_4": null }, "geometry": { "type": "Point", "coordinates": [ 90.775978059953729, 24.004128570152087 ] } },
{ "type": "Feature", "properties": { "id": "test_layer_1_1.112", "ID_1": 2, "NAME_1": "Chattogram", "ID_2": 7, "NAME_2": "Noakhali", "ID_3": 16, "NAME_3": "Noakhali", "ID_4": 116, "NAME_4": null, "VARNAME_4": null }, "geometry": { "type": "Point", "coordinates": [ 91.107135179925621, 22.796367647375469 ] } },
{ "type": "Feature", "properties": { "id": "test_layer_1_1.259", "ID_1": 4, "NAME_1": "Khulna", "ID_2": 15, "NAME_2": "Jessore", "ID_3": 36, "NAME_3": "Jashore", "ID_4": 246, "NAME_4": null, "VARNAME_4": null }, "geometry": { "type": "Point", "coordinates": [ 89.176391074540277, 23.087748623144062 ] } },
{ "type": "Feature", "properties": { "id": "test_layer_1_1.411", "ID_1": 6, "NAME_1": "Sylhet", "ID_2": 23, "NAME_2": "Sylhet", "ID_3": 63, "NAME_3": "Habiganj", "ID_4": 430, "NAME_4": null, "VARNAME_4": null }, "geometry": { "type": "Point", "coordinates": [ 91.430955952422622, 24.370875643185538 ] } },
{ "type": "Feature", "properties": { "id": "test_layer_1_1.394", "ID_1": 5, "NAME_1": "Rangpur", "ID_2": 22, "NAME_2": "Rangpur", "ID_3": 58, "NAME_3": "Gaibandha", "ID_4": 394, "NAME_4": null, "VARNAME_4": null }, "geometry": { "type": "Point", "coordinates": [ 89.509023965942959, 25.29841221451052 ] } },
{ "type": "Feature", "properties": { "id": "test_layer_1_1.219", "ID_1": 3, "NAME_1": "Mymensingh", "ID_2": 13, "NAME_2": "Mymensingh", "ID_3": 33, "NAME_3": "Mymensingh", "ID_4": 213, "NAME_4": null, "VARNAME_4": null }, "geometry": { "type": "Point", "coordinates": [ 90.431448323761629, 24.696402417248386 ] } },
{ "type": "Feature", "properties": { "id": "test_layer_1_1.157", "ID_1": 3, "NAME_1": "Dhaka", "ID_2": 9, "NAME_2": "Dhaka", "ID_3": 22, "NAME_3": "Narayanganj", "ID_4": 151, "NAME_4": null, "VARNAME_4": null }, "geometry": { "type": "Point", "coordinates": [ 90.575193686611399, 23.740226877904988 ] } },
{ "type": "Feature", "properties": { "id": "test_layer_1_1.142", "ID_1": 3, "NAME_1": "Dhaka", "ID_2": 9, "NAME_2": "Dhaka", "ID_3": 19, "NAME_3": "Gazipur", "ID_4": 133, "NAME_4": null, "VARNAME_4": null }, "geometry": { "type": "Point", "coordinates": [ 90.449891794632194, 24.11121020971877 ] } },
{ "type": "Feature", "properties": { "id": "test_layer_1_1.293", "ID_1": 4, "NAME_1": "Khulna", "ID_2": 17, "NAME_2": "Kushtia", "ID_3": 44, "NAME_3": "Chuadanga", "ID_4": 293, "NAME_4": null, "VARNAME_4": null }, "geometry": { "type": "Point", "coordinates": [ 88.84878132697952, 23.607284363841739 ] } },
{ "type": "Feature", "properties": { "id": "test_layer_1_1.425", "ID_1": 6, "NAME_1": "Sylhet", "ID_2": 23, "NAME_2": "Sylhet", "ID_3": 64, "NAME_3": "Moulvibazar", "ID_4": 438, "NAME_4": null, "VARNAME_4": null }, "geometry": { "type": "Point", "coordinates": [ 91.915449297244521, 24.479407235646754 ] } },
{ "type": "Feature", "properties": { "id": "test_layer_1_1.303", "ID_1": 4, "NAME_1": "Khulna", "ID_2": 17, "NAME_2": "Kushtia", "ID_3": 46, "NAME_3": "Meherpur", "ID_4": 303, "NAME_4": null, "VARNAME_4": null }, "geometry": { "type": "Point", "coordinates": [ 88.709377467652828, 23.795281556981205 ] } },
{ "type": "Feature", "properties": { "id": "test_layer_1_1.316", "ID_1": 5, "NAME_1": "Rajshahi", "ID_2": 18, "NAME_2": "Bogura", "ID_3": 48, "NAME_3": "Joypurhat", "ID_4": 316, "NAME_4": null, "VARNAME_4": null }, "geometry": { "type": "Point", "coordinates": [ 89.082726155699206, 25.096861723674852 ] } },
{ "type": "Feature", "properties": { "id": "test_layer_1_1.68", "ID_1": 2, "NAME_1": "Chattogram", "ID_2": 4, "NAME_2": "Chattogram", "ID_3": 9, "NAME_3": "Cox's Bazar", "ID_4": 67, "NAME_4": null, "VARNAME_4": null }, "geometry": { "type": "Point", "coordinates": [ 92.067392812323746, 21.491284998604407 ] } },
{ "type": "Feature", "properties": { "id": "test_layer_1_1.413", "ID_1": 5, "NAME_1": "Rangpur", "ID_2": 22, "NAME_2": "Rangpur", "ID_3": 60, "NAME_3": "Lalmonirhat", "ID_4": 410, "NAME_4": null, "VARNAME_4": null }, "geometry": { "type": "Point", "coordinates": [ 89.268942124643303, 25.982844356685948 ] } },
{ "type": "Feature", "properties": { "id": "test_layer_1_1.113", "ID_1": 2, "NAME_1": "Chattogram", "ID_2": 7, "NAME_2": "Noakhali", "ID_3": 14, "NAME_3": "Feni", "ID_4": 102, "NAME_4": null, "VARNAME_4": null }, "geometry": { "type": "Point", "coordinates": [ 91.415173206034481, 22.997321534937495 ] } },
{ "type": "Feature", "properties": { "id": "test_layer_1_1.231", "ID_1": 3, "NAME_1": "Mymensingh", "ID_2": 13, "NAME_2": "Mymensingh", "ID_3": 34, "NAME_3": "Netrokona", "ID_4": 225, "NAME_4": null, "VARNAME_4": null }, "geometry": { "type": "Point", "coordinates": [ 90.843524783969542, 24.86757161293529 ] } },
{ "type": "Feature", "properties": { "id": "test_layer_1_1.61", "ID_1": 3, "NAME_1": "Dhaka", "ID_2": 9, "NAME_2": "Dhaka", "ID_3": 18, "NAME_3": "Dhaka", "ID_4": 130, "NAME_4": null, "VARNAME_4": null }, "geometry": { "type": "Point", "coordinates": [ 90.321879259172746, 23.79711722423793 ] } },
{ "type": "Feature", "properties": { "id": "test_layer_1_1.91", "ID_1": 2, "NAME_1": "Chattogram", "ID_2": 5, "NAME_2": "Comilla", "ID_3": 12, "NAME_3": "Cumilla", "ID_4": 82, "NAME_4": null, "VARNAME_4": null }, "geometry": { "type": "Point", "coordinates": [ 91.037766004375271, 23.434825468677122 ] } },
{ "type": "Feature", "properties": { "id": "test_layer_1_1.217", "ID_1": 4, "NAME_1": "Khulna", "ID_2": 17, "NAME_2": "Kushtia", "ID_3": 45, "NAME_3": "Kushtia", "ID_4": 297, "NAME_4": null, "VARNAME_4": null }, "geometry": { "type": "Point", "coordinates": [ 89.025449370381921, 23.904036088562716 ] } },
{ "type": "Feature", "properties": { "id": "test_layer_1_1.29", "ID_1": 2, "NAME_1": "Chattogram", "ID_2": 3, "NAME_2": "Bandarban", "ID_3": 7, "NAME_3": "Bandarban", "ID_4": 39, "NAME_4": null, "VARNAME_4": null }, "geometry": { "type": "Point", "coordinates": [ 92.368075713630844, 21.813188593165243 ] } },
{ "type": "Feature", "properties": { "id": "test_layer_1_1.240", "ID_1": 4, "NAME_1": "Khulna", "ID_2": 16, "NAME_2": "Khulna", "ID_3": 43, "NAME_3": "Satkhira", "ID_4": 286, "NAME_4": null, "VARNAME_4": null }, "geometry": { "type": "Point", "coordinates": [ 89.095396342088748, 22.414635273669028 ] } },
{ "type": "Feature", "properties": { "id": "test_layer_1_1.278", "ID_1": 4, "NAME_1": "Khulna", "ID_2": 16, "NAME_2": "Khulna", "ID_3": 40, "NAME_3": "Bagerhat", "ID_4": 267, "NAME_4": null, "VARNAME_4": null }, "geometry": { "type": "Point", "coordinates": [ 89.723092821020245, 22.467956663792549 ] } },
{ "type": "Feature", "properties": { "id": "test_layer_1_1.11", "ID_1": 4, "NAME_1": "Khulna", "ID_2": 16, "NAME_2": "Khulna", "ID_3": 41, "NAME_3": "Khulna", "ID_4": 279, "NAME_4": null, "VARNAME_4": null }, "geometry": { "type": "Point", "coordinates": [ 89.423236002473118, 22.478458522567102 ] } },
{ "type": "Feature", "properties": { "id": "test_layer_1_1.169", "ID_1": 3, "NAME_1": "Dhaka", "ID_2": 9, "NAME_2": "Dhaka", "ID_3": 24, "NAME_3": "Rajbari", "ID_4": 162, "NAME_4": null, "VARNAME_4": null }, "geometry": { "type": "Point", "coordinates": [ 89.562037719559328, 23.72496999449935 ] } },
{ "type": "Feature", "properties": { "id": "test_layer_1_1.438", "ID_1": 6, "NAME_1": "Sylhet", "ID_2": 23, "NAME_2": "Sylhet", "ID_3": 65, "NAME_3": "Sunamganj", "ID_4": 443, "NAME_4": null, "VARNAME_4": null }, "geometry": { "type": "Point", "coordinates": [ 91.347644859020761, 24.937438718137425 ] } },
{ "type": "Feature", "properties": { "id": "test_layer_1_1.453", "ID_1": 6, "NAME_1": "Sylhet", "ID_2": 23, "NAME_2": "Sylhet", "ID_3": 66, "NAME_3": "Sylhet", "ID_4": 453, "NAME_4": null, "VARNAME_4": null }, "geometry": { "type": "Point", "coordinates": [ 91.992345175408644, 24.921965108418064 ] } },
{ "type": "Feature", "properties": { "id": "test_layer_1_1.117", "ID_1": 2, "NAME_1": "Chattogram", "ID_2": 8, "NAME_2": "Rangamati", "ID_3": 17, "NAME_3": "Rangamati", "ID_4": 122, "NAME_4": null, "VARNAME_4": null }, "geometry": { "type": "Point", "coordinates": [ 92.278694996067998, 22.848690684194317 ] } },
{ "type": "Feature", "properties": { "id": "test_layer_1_1.10", "ID_1": 1, "NAME_1": "Barishal", "ID_2": 1, "NAME_2": "Barishal", "ID_3": 2, "NAME_3": "Jhalokati", "ID_4": 11, "NAME_4": null, "VARNAME_4": null }, "geometry": { "type": "Point", "coordinates": [ 90.185790228043757, 22.576259458646255 ] } },
{ "type": "Feature", "properties": { "id": "test_layer_1_1.334", "ID_1": 5, "NAME_1": "Rangpur", "ID_2": 19, "NAME_2": "Dinajpur", "ID_3": 50, "NAME_3": "Panchagarh", "ID_4": 334, "NAME_4": null, "VARNAME_4": null }, "geometry": { "type": "Point", "coordinates": [ 88.580250604678596, 26.28631347856199 ] } },
{ "type": "Feature", "properties": { "id": "test_layer_1_1.38", "ID_1": 1, "NAME_1": "Barishal", "ID_2": 2, "NAME_2": "Patuakhali", "ID_3": 6, "NAME_3": "Patuakhali", "ID_4": 33, "NAME_4": null, "VARNAME_4": null }, "geometry": { "type": "Point", "coordinates": [ 90.471233900916644, 22.331567467244085 ] } },
{ "type": "Feature", "properties": { "id": "test_layer_1_1.184", "ID_1": 3, "NAME_1": "Dhaka", "ID_2": 10, "NAME_2": "Faridpur", "ID_3": 27, "NAME_3": "Madaripur", "ID_4": 176, "NAME_4": null, "VARNAME_4": null }, "geometry": { "type": "Point", "coordinates": [ 90.166084571395885, 23.213496810006713 ] } },
{ "type": "Feature", "properties": { "id": "test_layer_1_1.194", "ID_1": 3, "NAME_1": "Mymensingh", "ID_2": 11, "NAME_2": "Jamalpur", "ID_3": 30, "NAME_3": "Jamalpur", "ID_4": 188, "NAME_4": null, "VARNAME_4": null }, "geometry": { "type": "Point", "coordinates": [ 89.806936671877125, 24.940393628923129 ] } },
{ "type": "Feature", "properties": { "id": "test_layer_1_1.305", "ID_1": 5, "NAME_1": "Rajshahi", "ID_2": 18, "NAME_2": "Bogura", "ID_3": 47, "NAME_3": "Bogura", "ID_4": 305, "NAME_4": null, "VARNAME_4": null }, "geometry": { "type": "Point", "coordinates": [ 89.379252894042935, 24.827139125671913 ] } },
{ "type": "Feature", "properties": { "id": "test_layer_1_1.399", "ID_1": 5, "NAME_1": "Rangpur", "ID_2": 22, "NAME_2": "Rangpur", "ID_3": 61, "NAME_3": "Nilphamari", "ID_4": 420, "NAME_4": null, "VARNAME_4": null }, "geometry": { "type": "Point", "coordinates": [ 88.939678068361417, 26.02568931738551 ] } },
{ "type": "Feature", "properties": { "id": "test_layer_1_1.147", "ID_1": 3, "NAME_1": "Dhaka", "ID_2": 9, "NAME_2": "Dhaka", "ID_3": 20, "NAME_3": "Manikganj", "ID_4": 138, "NAME_4": null, "VARNAME_4": null }, "geometry": { "type": "Point", "coordinates": [ 89.954504468738691, 23.840591298278955 ] } },
{ "type": "Feature", "properties": { "id": "test_layer_1_1.63", "ID_1": 3, "NAME_1": "Dhaka", "ID_2": 9, "NAME_2": "Dhaka", "ID_3": 21, "NAME_3": "Munshiganj", "ID_4": 145, "NAME_4": null, "VARNAME_4": null }, "geometry": { "type": "Point", "coordinates": [ 90.368712579148934, 23.506697079576639 ] } },
{ "type": "Feature", "properties": { "id": "test_layer_1_1.362", "ID_1": 5, "NAME_1": "Rajshahi", "ID_2": 21, "NAME_2": "Rajshahi", "ID_3": 57, "NAME_3": "Rajshahi", "ID_4": 390, "NAME_4": null, "VARNAME_4": null }, "geometry": { "type": "Point", "coordinates": [ 88.656609462927506, 24.468064313794599 ] } },
{ "type": "Feature", "properties": { "id": "test_layer_1_1.353", "ID_1": 5, "NAME_1": "Rajshahi", "ID_2": 20, "NAME_2": "Pabna", "ID_3": 53, "NAME_3": "Sirajganj", "ID_4": 353, "NAME_4": null, "VARNAME_4": null }, "geometry": { "type": "Point", "coordinates": [ 89.59912386012742, 24.400163493149389 ] } },
{ "type": "Feature", "properties": { "id": "test_layer_1_1.166", "ID_1": 3, "NAME_1": "Dhaka", "ID_2": 10, "NAME_2": "Faridpur", "ID_3": 29, "NAME_3": "Shariatpur", "ID_4": 184, "NAME_4": null, "VARNAME_4": null }, "geometry": { "type": "Point", "coordinates": [ 90.415867279589008, 23.248445013639685 ] } },
{ "type": "Feature", "properties": { "id": "test_layer_1_1.363", "ID_1": 5, "NAME_1": "Rajshahi", "ID_2": 21, "NAME_2": "Rajshahi", "ID_3": 54, "NAME_3": "Naogaon", "ID_4": 362, "NAME_4": null, "VARNAME_4": null }, "geometry": { "type": "Point", "coordinates": [ 88.753538775669242, 24.899780881154321 ] } },
{ "type": "Feature", "properties": { "id": "test_layer_1_1.403", "ID_1": 5, "NAME_1": "Rangpur", "ID_2": 22, "NAME_2": "Rangpur", "ID_3": 62, "NAME_3": "Rangpur", "ID_4": 423, "NAME_4": null, "VARNAME_4": null }, "geometry": { "type": "Point", "coordinates": [ 89.24095282884501, 25.644847554295954 ] } },
{ "type": "Feature", "properties": { "id": "test_layer_1_1.243", "ID_1": 3, "NAME_1": "Dhaka", "ID_2": 14, "NAME_2": "Tangail", "ID_3": 35, "NAME_3": "Tangail", "ID_4": 236, "NAME_4": null, "VARNAME_4": null }, "geometry": { "type": "Point", "coordinates": [ 89.997682498396799, 24.355739345421668 ] } }
]
}
